City_ID,City,Lat,Lng,Max Temp,Humidity,Cloudiness,Wind Speed,Country,Date
0,haapsalu,58.9431,23.5414,-11.16,82,4,4.11,EE,1707519100
1,albany,42.6001,-73.9662,10.23,64,11,0.89,US,1707519101
2,beshkent,38.8214,65.6531,7.1,45,0,2.06,UZ,1707519101
3,aykhal,66.0,111.5,-33.32,100,100,1.71,RU,1707519101
4,menongue,-14.6585,17.691,18.14,94,29,1.06,AO,1707519101
5,dalandzadgad,43.5708,104.425,-13.65,71,1,0.93,MN,1707519101
6,port-aux-francais,-49.35,70.2167,7.9,96,72,13.73,TF,1707519101
7,cannonvale,-20.2833,148.7,25.66,62,11,7.38,AU,1707519102
8,grytviken,-54.2811,-36.5092,4.6,93,84,3.66,GS,1707519102
9,vila velha,-20.3297,-40.2925,26.08,87,20,4.63,BR,1707519102
10,talnakh,69.4865,88.3972,-25.88,78,68,2.4,RU,1707519102
11,adamstown,-25.066,-130.1015,25.16,91,100,10.97,PN,1707519102
12,san pedro pochutla,15.7333,-96.4667,26.67,68,95,2.77,MX,1707519102
13,margaret river,-33.95,115.0667,22.82,44,0,2.77,AU,1707519103
14,arraial do cabo,-22.9661,-42.0278,26.98,74,20,7.2,BR,1707519103
15,iqaluit,63.7506,-68.5145,-28.15,69,20,2.06,CA,1707519103
16,thompson,55.7435,-97.8558,-14.91,85,100,3.6,CA,1707519103
17,mamonovo,54.4643,19.938,0.14,90,100,10.52,RU,1707519103
18,isafjordur,66.0755,-23.124,-1.77,62,100,6.86,IS,1707519104
19,minas de marcona,-15.2119,-75.1103,21.75,71,5,6.8,PE,1707519104
20,vernon,50.2581,-119.2691,4.74,48,63,1.03,CA,1707519012
21,tralee,52.2704,-9.7026,5.74,88,24,5.53,IE,1707519104
22,kabinda,-6.1333,24.4833,21.46,92,100,0.88,CD,1707519104
23,colares,38.7992,-9.4469,14.86,87,4,9.83,PT,1707519104
24,cadale,2.7603,46.3222,26.05,87,55,9.34,SO,1707519104
25,okhotsk,59.3833,143.3,-30.48,82,34,3.18,RU,1707519105
26,tabou,4.423,-7.3528,26.79,87,0,2.37,CI,1707519105
27,bikenibeu village,1.3673,173.1241,25.98,94,100,1.54,KI,1707519105
28,selfoss,63.9331,-20.9971,-10.97,81,100,3.57,IS,1707519105
29,puerto natales,-51.7236,-72.4875,15.09,69,42,2.26,CL,1707519105
30,ciudad sabinas hidalgo,26.5,-100.1667,26.73,40,68,3.82,MX,1707519105
31,st. john's,47.5649,-52.7093,-1.29,95,100,7.2,CA,1707519105
32,severo-yeniseyskiy,60.3725,93.0408,-8.17,96,93,2.53,RU,1707519106
33,edinburgh of the seven seas,-37.0676,-12.3116,19.7,94,99,10.83,SH,1707519106
34,bilibino,68.0546,166.4372,-27.09,98,100,0.56,RU,1707519106
35,saipan,15.1355,145.701,27.39,69,40,7.2,MP,1707519106
36,carora,10.1755,-70.0827,26.99,67,80,5.31,VE,1707519106
37,akcaabat,41.0212,39.5715,17.93,29,0,6.17,TR,1707519106
38,punta arenas,-53.15,-70.9167,15.06,55,75,8.23,CL,1707518813
39,luganville,-15.5333,167.1667,29.01,82,100,4.36,VU,1707518846
40,port mathurin,-19.6833,63.4167,26.72,79,99,11.45,MU,1707519107
41,waitangi,-43.9535,-176.5597,17.12,71,10,4.02,NZ,1707519107
42,constantia,44.1833,28.65,7.61,82,73,4.39,RO,1707518881
43,zhezqazghan,47.7833,67.7667,1.14,98,99,4.56,KZ,1707519107
44,iskateley,67.6803,53.1512,-17.77,90,71,4.92,RU,1707519107
45,tomatlan,19.9333,-105.25,26.72,56,16,5.46,MX,1707519108
46,ribeira grande,38.5167,-28.7,13.76,92,100,3.58,PT,1707519108
47,el nido,11.1858,119.3956,26.66,77,42,3.36,PH,1707519108
48,airuk,7.2772,168.8203,27.15,80,100,10.38,MH,1707519108
49,bocholt,51.8333,6.6,11.39,79,100,4.16,DE,1707519108
50,allahabad,25.45,81.85,10.04,43,1,0.31,IN,1707519108
51,halifax,44.6453,-63.5724,0.0,87,20,1.03,CA,1707519109
52,suizhou,31.7111,113.3631,2.13,94,0,1.41,CN,1707519109
53,chonchi,-42.6128,-73.8092,20.56,71,77,2.17,CL,1707519109
54,ushuaia,-54.8,-68.3,12.81,67,40,6.69,AR,1707519079
55,bethel,41.3712,-73.414,9.47,71,26,0.89,US,1707518958
56,ofunato,39.0717,141.7167,1.55,75,69,0.49,JP,1707519109
57,alexandria,31.2156,29.9553,12.3,62,0,2.02,EG,1707519109
58,lompoc,34.6391,-120.4579,17.05,57,40,5.66,US,1707519110
59,wailua homesteads,22.0669,-159.378,25.44,72,40,4.12,US,1707519110
60,tiksi,71.6872,128.8694,-23.71,100,100,1.98,RU,1707519110
61,mirabad,30.4362,61.8383,13.01,21,0,1.47,AF,1707519110
62,hoemul-li,41.4339,129.67,-3.73,75,85,1.56,KP,1707519110
63,new norfolk,-42.7826,147.0587,14.72,45,1,0.42,AU,1707519110
64,lebu,-37.6167,-73.65,15.04,87,55,6.55,CL,1707519110
65,vilyuysk,63.7553,121.6247,-31.11,100,100,0.45,RU,1707519111
66,port lincoln,-34.7333,135.8667,20.41,68,3,7.86,AU,1707519111
67,invercargill,-46.4,168.35,11.12,90,99,3.58,NZ,1707519043
68,onega,63.9061,38.1404,-21.39,100,83,0.82,RU,1707519111
69,mahina,-17.5065,-149.489,29.87,70,75,4.12,PF,1707519111
70,mamontovo,52.7055,81.6244,1.54,76,100,15.42,RU,1707519111
71,fortaleza,-3.7227,-38.5247,29.56,79,20,4.12,BR,1707519111
72,hadibu,12.65,54.0333,25.36,70,100,6.93,YE,1707519112
73,luderitz,-26.6481,15.1594,17.88,77,33,13.43,NA,1707519112
74,merizo village,13.2658,144.6691,27.77,80,100,7.7,GU,1707519112
75,basco,20.4487,121.9702,22.09,75,85,8.7,PH,1707519112
76,vadso,70.0744,29.7487,-13.91,85,75,3.6,NO,1707519112
77,salalah,17.0151,54.0924,22.05,64,0,2.57,OM,1707519112
78,yen bai,21.7,104.8667,14.78,77,100,1.05,VN,1707519112
79,salinopolis,-0.6136,-47.3561,27.7,80,74,7.02,BR,1707519113
80,college,64.8569,-147.8028,-6.22,74,100,0.0,US,1707519113
81,christchurch,-43.5333,172.6333,19.95,67,79,2.57,NZ,1707518862
82,senekal,-28.3197,27.6208,16.14,91,62,1.91,ZA,1707519113
83,uyovu,-3.2833,31.5258,17.93,96,6,1.5,TZ,1707519113
84,carnarvon,-24.8667,113.6333,25.96,71,0,4.8,AU,1707519114
85,ilam,26.9167,87.9167,9.36,53,0,3.12,NP,1707519114
86,remire-montjoly,4.9167,-52.2667,28.02,78,0,1.54,GF,1707519114
87,utrik,11.2278,169.8474,26.09,80,100,10.63,MH,1707519114
88,naze,28.3667,129.4833,12.51,52,100,8.12,JP,1707519114
89,kamen'-na-obi,53.7884,81.3423,2.99,82,100,14.18,RU,1707519114
90,yellowknife,62.456,-114.3525,-16.44,84,75,3.6,CA,1707518858
91,as samawah,31.332,45.2944,16.98,32,100,4.83,IQ,1707519114
92,qaqortoq,60.7167,-46.0333,-10.7,65,100,3.9,GL,1707519115
93,ouesso,1.6136,16.0517,25.71,66,95,1.53,CG,1707519115
94,chesma,53.8111,60.6533,-18.82,86,42,5.47,RU,1707519115
95,olonkinbyen,70.9221,-8.7187,-3.04,63,9,4.37,SJ,1707519115
96,queenstown,-31.8976,26.8753,15.71,79,88,2.87,ZA,1707519115
97,vorgashor,67.5833,63.95,-22.49,92,62,9.2,RU,1707519115
98,turkestan,43.3333,68.25,7.2,63,100,1.89,KZ,1707519116
99,flying fish cove,-10.4217,105.6791,26.82,83,75,2.06,CX,1707519116
100,yinchuan,38.4681,106.2731,-2.0,56,8,3.63,CN,1707519116
101,leh,34.1667,77.5833,-19.73,39,0,3.44,IN,1707519116
102,san cristobal,7.7669,-72.225,19.1,98,77,0.68,VE,1707519090
103,georgetown,5.4112,100.3354,26.96,81,20,4.12,MY,1707519015
104,whitehorse,60.7161,-135.0538,-7.77,82,75,13.89,CA,1707519116
105,limoux,42.9167,2.1667,11.5,86,100,1.73,FR,1707519116
106,angaur state,6.906,134.13,27.71,82,75,8.31,PW,1707519117
107,ust-nera,64.5667,143.2,-34.56,100,100,0.27,RU,1707519117
108,sisimiut,66.9395,-53.6735,-16.46,91,100,4.43,GL,1707519117
109,tselina,46.5338,41.0328,10.6,88,97,6.85,RU,1707519117
110,bredasdorp,-34.5322,20.0403,16.96,80,41,2.84,ZA,1707519117
111,dayton,39.7589,-84.1916,15.43,69,0,7.2,US,1707519029
112,stanley,54.868,-1.6985,5.85,93,100,3.09,GB,1707519118
113,coquimbo,-29.9533,-71.3436,19.85,82,40,5.66,CL,1707518535
114,udachny,66.4167,112.4,-32.53,67,99,1.1,RU,1707519118
115,vilyuchinsk,52.9306,158.4028,-12.85,84,21,3.37,RU,1707519118
116,badger,64.8,-147.5333,-6.27,78,100,0.0,US,1707519118
117,kiunga,-6.1219,141.2906,25.18,91,100,0.25,PG,1707519119
118,kapuskasing,49.4169,-82.4331,3.05,100,100,2.06,CA,1707519119
119,kenai,60.5544,-151.2583,2.27,75,0,10.29,US,1707519119
120,san antonio de pale,-1.4014,5.6325,28.02,77,54,2.38,GQ,1707519119
121,tura,25.5198,90.2201,10.16,64,0,2.5,IN,1707519119
122,victorica,-36.2151,-65.4359,23.52,70,90,7.32,AR,1707519119
123,kirensk,57.7853,108.1119,-12.24,97,98,1.79,RU,1707519119
124,weno,7.4515,151.8468,27.97,74,100,4.12,FM,1707519120
125,blackmans bay,-43.0167,147.3167,14.07,56,4,0.89,AU,1707519120
126,al khums,32.6486,14.2619,17.68,46,25,6.74,LY,1707519120
127,san,13.3034,-4.8956,27.23,8,100,3.69,ML,1707518949
128,ancud,-41.8697,-73.8203,14.05,88,12,9.08,CL,1707519120
129,marica,-22.9194,-42.8186,26.97,88,74,4.4,BR,1707519120
130,khabary,53.6259,79.5345,3.49,83,100,14.1,RU,1707519120
131,wanning,18.8003,110.3967,15.58,88,100,5.9,CN,1707519120
132,akureyri,65.6835,-18.0878,-14.04,85,0,1.54,IS,1707519121
133,sao joao da barra,-21.6403,-41.0511,27.05,84,2,5.07,BR,1707519121
134,odienne,9.51,-7.5692,25.82,15,89,1.17,CI,1707519121
135,uturoa,-16.7333,-151.4333,25.53,92,100,5.89,PF,1707519121
136,torokszentmiklos,47.1833,20.4167,12.03,71,100,6.17,HU,1707519121
137,tazovsky,67.4667,78.7,-16.86,96,100,5.14,RU,1707519121
138,kabwe,-14.4469,28.4464,18.22,85,35,2.3,ZM,1707519122
139,veshenskaya,49.6303,41.7334,-3.27,71,100,4.02,RU,1707519122
140,bang saphan,11.2126,99.5117,25.08,88,71,1.55,TH,1707519122
141,prince rupert,54.3161,-130.3201,3.83,93,100,12.35,CA,1707519122
142,altai,46.3722,96.2583,-12.12,47,26,1.35,MN,1707519122
143,woolgoolga,-30.1106,153.2007,25.58,57,89,3.39,AU,1707519122
144,franklin,39.9667,-83.0166,15.02,70,75,7.2,US,1707518851
145,kayangel,8.0823,134.7173,27.52,80,99,9.44,PW,1707519123
146,afaahiti,-17.75,-149.2833,28.93,81,99,3.34,PF,1707519123
147,tamanrasset,22.785,5.5228,9.95,16,0,1.54,DZ,1707519123
148,haiku-pauwela,20.9219,-156.3051,25.7,68,40,4.12,US,1707519123
149,hasaki,35.7333,140.8333,1.22,66,75,3.4,JP,1707519123
150,clarinda,40.7419,-95.0383,10.18,53,75,6.69,US,1707519123
151,kodiak,57.79,-152.4072,3.73,93,100,5.66,US,1707519124
152,west island,-12.1568,96.8225,26.99,78,40,4.63,CC,1707519124
153,anadyr,64.75,177.4833,-16.72,77,20,8.0,RU,1707519124
154,ciudad lazaro cardenas,17.9583,-102.2,27.22,57,0,4.69,MX,1707519124
155,vieux-habitants,16.0589,-61.7659,23.76,78,22,2.23,GP,1707519124
156,palikir - national government center,6.9248,158.1611,28.47,83,100,4.12,FM,1707519125
157,hermanus,-34.4187,19.2345,15.45,83,76,1.84,ZA,1707519125
158,longyearbyen,78.2186,15.6401,-5.09,68,75,7.72,SJ,1707519125
159,kapa'a,22.0752,-159.319,26.18,71,40,4.12,US,1707519125
160,sur,22.5667,59.5289,20.48,68,0,1.14,OM,1707519125
161,santa terezinha,-29.9002,-50.0904,24.87,96,38,3.03,BR,1707519125
162,novosineglazovskiy,55.0401,61.3792,-12.95,82,100,5.57,RU,1707519126
163,ribnitz-damgarten,54.25,12.4667,1.7,99,100,2.24,DE,1707519126
164,crane,31.3974,-102.3501,17.71,18,100,3.75,US,1707519126
165,papatowai,-46.5619,169.4708,9.17,91,97,4.96,NZ,1707519126
166,san luis de la loma,17.2706,-100.8939,27.97,59,3,4.59,MX,1707519126
167,dudinka,69.4058,86.1778,-23.51,87,97,2.68,RU,1707519126
168,port elizabeth,-33.918,25.5701,19.16,75,20,6.17,ZA,1707519127
169,iwanai,42.9744,140.5089,-4.11,91,99,1.96,JP,1707519127
170,ipora,-16.4419,-51.1178,24.03,80,99,1.63,BR,1707519127
171,acapulco de juarez,16.8634,-99.8901,27.8,62,6,4.24,MX,1707519127
172,lake havasu city,34.4839,-114.3224,15.12,43,0,2.57,US,1707519098
173,gobabis,-22.45,18.9667,27.81,31,81,2.98,NA,1707519127
174,homer,59.6425,-151.5483,4.94,69,100,2.24,US,1707519128
175,tommot,58.9564,126.2925,-32.88,99,99,0.62,RU,1707519128
176,lospalos,-8.5186,127.0025,24.99,85,73,4.05,TL,1707519128
177,saint-pierre,-21.3393,55.4781,26.82,69,0,4.63,RE,1707519122
178,manggar,-2.8833,108.2667,26.65,86,99,4.78,ID,1707519128
179,beloretsk,53.9631,58.3981,-17.4,92,98,5.83,RU,1707519129
180,callao,-12.0667,-77.15,28.16,69,0,5.66,PE,1707519129
181,nogliki,51.8333,143.1667,-19.52,96,87,2.96,RU,1707519129
182,barra de santo antonio,-9.4047,-35.5072,28.6,78,62,7.15,BR,1707519129
183,aasiaat,68.7098,-52.8699,-15.6,76,100,10.73,GL,1707519129
184,loreto,22.2667,-101.9667,24.4,11,22,7.41,MX,1707519130
185,dibba al-hisn,25.6196,56.2729,15.1,74,0,2.5,AE,1707519130
186,at taj,24.2049,23.2857,12.06,32,0,2.51,LY,1707519130
187,ampanihy,-24.7,44.75,25.23,72,0,2.36,MG,1707519130
188,marka,1.7159,44.7717,26.13,83,22,7.82,SO,1707519130
189,okha,53.5739,142.9478,-25.98,100,86,2.22,RU,1707519130
190,puerto ayora,-0.7393,-90.3518,29.98,91,77,1.79,EC,1707519131
191,serov,59.6033,60.5787,-11.52,93,100,3.8,RU,1707519131
192,gao,16.6362,1.637,22.39,9,99,3.58,ML,1707519131
193,tangalle,6.024,80.7911,23.83,76,51,5.39,LK,1707518872
194,nova vicosa,-17.8919,-39.3719,22.13,97,31,1.7,BR,1707519132
195,cabedelo,-6.9811,-34.8339,29.37,81,79,4.16,BR,1707519008
196,ulsteinvik,62.3432,5.8487,-1.93,67,25,3.13,NO,1707519132
197,sandnessjoen,66.0217,12.6316,-0.88,69,40,6.17,NO,1707519132
198,ketchikan,55.3422,-131.6461,4.99,93,100,6.17,US,1707519132
199,port alfred,-33.5906,26.891,18.99,85,58,2.68,ZA,1707519132
200,yei,4.095,30.6779,26.63,45,76,1.29,SS,1707519132
201,fort mcmurray,56.7268,-111.381,-6.27,79,100,2.57,CA,1707519133
202,bossangoa,6.4926,17.4552,24.74,24,49,2.07,CF,1707519133
203,ixtapa,20.7,-105.2,25.57,61,20,4.12,MX,1707519133
204,kaa-khem,51.6833,94.7333,-14.77,94,100,0.44,RU,1707519133
205,gaspe,48.8334,-64.4819,-2.88,86,75,0.0,CA,1707518902
206,kyshtovka,56.555,76.6271,-5.37,92,100,3.58,RU,1707519134
207,gaigeturi,33.4644,126.3183,6.03,65,75,1.03,KR,1707519134
208,basse-terre,16.1667,-61.6667,22.58,83,100,3.09,GP,1707519134
209,ozark,37.0209,-93.206,21.23,60,100,2.98,US,1707519134
210,avarua,-21.2078,-159.775,29.03,74,40,8.23,CK,1707519134
211,mahalapye,-23.1041,26.8142,26.75,53,62,4.73,BW,1707519135
212,polyarnyy,69.1989,33.4478,-14.61,89,100,2.75,RU,1707519135
213,shimoda,34.6667,138.95,6.72,69,64,1.89,JP,1707519135
214,jandiala sher khan,31.8199,73.9181,8.53,43,0,0.67,PK,1707519135
215,cabo san lucas,22.8909,-109.9124,21.45,68,100,4.63,MX,1707519136
216,lata,40.1629,-8.3327,11.15,88,88,5.56,PT,1707519136
217,kingston,17.997,-76.7936,29.53,59,20,3.6,JM,1707519104
218,palu,-0.8917,119.8707,25.18,88,99,1.74,ID,1707519136
219,duba,27.3513,35.6901,21.58,48,0,0.98,SA,1707519136
220,seka,17.9285,103.9552,14.66,71,24,2.54,TH,1707519137
221,magadan,59.5667,150.8,-30.09,80,14,2.79,RU,1707519112
222,wellington,-41.2866,174.7756,21.1,70,20,11.32,NZ,1707518721
223,taroa,8.7058,171.2275,26.8,81,100,11.82,MH,1707519137
224,calvinia,-31.4707,19.776,13.9,73,2,1.91,ZA,1707519137
225,hamilton,39.1834,-84.5333,15.69,70,0,5.66,US,1707518857
226,faya-largeau,17.9257,19.1043,18.86,17,0,5.44,TD,1707519138
227,petropavlovsk-kamchatsky,53.0452,158.6483,-13.67,56,75,5.0,RU,1707519138
228,buka,40.8108,69.1986,8.91,40,65,0.73,UZ,1707519138
229,tazacorte,28.629,-17.9293,21.54,98,40,5.14,ES,1707519138
230,huarmey,-10.0681,-78.1522,24.9,83,12,4.45,PE,1707519139
231,chunskiy,56.0815,99.6342,-0.74,90,100,3.68,RU,1707519139
232,nantucket,41.2835,-70.0995,4.44,87,0,5.66,US,1707519002
233,nikolayevsk-on-amure,53.1406,140.73,-20.15,100,80,1.28,RU,1707519139
234,takoradi,4.8845,-1.7554,25.89,86,4,1.42,GH,1707519140
235,niamey,13.5137,2.1098,24.16,14,4,1.54,NE,1707519140
236,kalmunai,7.4167,81.8167,25.97,76,100,4.6,LK,1707519140
237,sao paulo de olivenca,-3.3783,-68.8725,26.81,85,83,0.86,BR,1707519140
238,jianguang,28.1938,115.7836,4.6,88,20,2.47,CN,1707519141
239,kornik,52.2477,17.0895,5.75,93,100,2.26,PL,1707519141
240,praia da vitoria,38.7333,-27.0667,13.75,94,20,0.38,PT,1707519141
241,happy valley-goose bay,53.3168,-60.3315,-1.83,69,75,2.06,CA,1707519142
242,la ronge,55.1001,-105.2842,-4.86,80,100,3.09,CA,1707519142
243,qamdo,31.1667,97.2333,-14.97,37,0,0.58,CN,1707519142
244,rio san juan,19.6439,-70.0763,24.19,60,0,5.98,DO,1707519143
245,zamora,-4.0692,-78.9567,30.58,96,58,1.14,EC,1707519143
246,belyy yar,53.6039,91.3903,3.94,65,0,6.0,RU,1707519143
247,ta`u,-14.2336,-169.5144,28.79,81,100,7.83,AS,1707519143
248,pocora,10.1718,-83.6044,22.29,93,92,1.17,CR,1707519144
249,morehead city,34.7229,-76.726,14.01,87,0,1.54,US,1707519144
250,san borja,-14.8167,-66.85,27.57,78,96,0.33,BO,1707519144
251,lazaro cardenas,17.9583,-102.2,27.22,57,0,4.69,MX,1707519069
252,ascension,30.2169,-90.9001,24.0,67,100,3.09,US,1707519145
253,fort bragg,35.139,-79.006,16.75,70,100,2.06,US,1707519145
254,altay,47.8667,88.1167,-4.78,68,85,3.79,CN,1707519145
255,san patricio,28.017,-97.5169,25.05,69,100,5.38,US,1707519145
256,saint-philippe,-21.3585,55.7679,26.77,83,100,6.91,RE,1707519145
257,tawau,4.2498,117.8871,24.07,94,37,0.89,MY,1707519146
258,okeechobee,27.2439,-80.8298,23.01,59,100,2.06,US,1707519146
259,qinzhou,21.95,108.6167,11.64,69,99,4.04,CN,1707519146
260,forster,-32.1667,152.5167,21.32,100,28,4.92,AU,1707519146
261,puerto armuelles,8.2833,-82.8667,31.99,68,8,0.45,PA,1707519146
262,quepos,9.4236,-84.1652,28.76,72,18,1.89,CR,1707519146
263,zhangjiajie,29.1294,110.4783,3.64,95,18,1.89,CN,1707519146
264,prado,-17.3411,-39.2208,22.61,94,69,2.41,BR,1707519087
265,nova sintra,14.8667,-24.7167,20.87,72,0,10.69,CV,1707519147
266,northam,51.0333,-4.2167,9.81,96,96,4.07,GB,1707519147
267,keflavik,64.0049,-22.5624,-3.76,74,0,5.14,IS,1707519147
268,iquique,-20.2208,-70.1431,26.02,80,10,4.3,CL,1707519118
269,tank,32.2217,70.3793,13.38,26,0,2.15,PK,1707519148
270,sihanoukville,10.6093,103.5296,26.97,78,20,2.57,KH,1707519148
271,dryden,49.7833,-92.7503,-7.84,86,100,4.12,CA,1707519148
272,hithadhoo,-0.6,73.0833,28.38,67,85,5.83,MV,1707519148
273,old town,50.087,14.4202,10.0,93,75,2.57,CZ,1707519148
274,cidreira,-30.1811,-50.2056,25.29,87,24,5.7,BR,1707519148
275,katsuura,35.1333,140.3,5.87,84,72,2.89,JP,1707519148
276,hawaiian paradise park,19.5933,-154.9731,23.91,85,100,4.63,US,1707519149
277,kone,-21.0595,164.8658,29.36,64,33,2.47,NC,1707519149
278,howrah,22.5892,88.3103,15.0,77,1,2.06,IN,1707519149
279,sitka,57.0531,-135.33,5.94,70,100,11.83,US,1707519149
280,yeppoon,-23.1333,150.7333,27.88,66,10,6.39,AU,1707519149
281,brandfort,-28.7001,26.4597,16.67,95,56,3.6,ZA,1707519149
282,klyuchi,52.2667,79.1667,4.65,68,100,13.2,RU,1707519149
283,castillos,-34.1667,-53.8333,23.21,87,77,6.43,UY,1707519150
284,nemuro,43.3236,145.575,-4.24,83,100,0.9,JP,1707519150
285,copiapo,-27.3667,-70.3333,20.83,53,4,2.56,CL,1707519150
286,enewetak,11.3474,162.3373,26.46,81,99,10.48,MH,1707519150
287,cafayate,-26.073,-65.9761,22.25,78,46,1.84,AR,1707519150
288,ubari,26.5921,12.7805,14.26,26,42,5.84,LY,1707519150
289,mammoth lakes,37.6485,-118.9721,-0.37,51,100,1.79,US,1707519151
290,sarangani,5.4033,125.4636,26.61,76,49,4.07,PH,1707519151
291,tselinnoye,53.0833,85.6667,3.93,82,100,10.08,RU,1707519151
292,goias,-15.5807,-49.6362,23.0,89,100,1.13,BR,1707519151
293,paramonga,-10.6667,-77.8333,24.38,85,27,4.58,PE,1707519151
294,carnaiba,-8.7,-37.6667,26.82,61,100,5.34,BR,1707519151
295,san carlos,9.6612,-68.5827,27.66,72,94,1.61,VE,1707519152
296,nieuw amsterdam,5.8833,-55.0833,29.09,74,20,2.57,SR,1707519152
297,coyhaique,-45.5752,-72.0662,27.34,32,0,3.6,CL,1707519152
298,vila franca do campo,37.7167,-25.4333,15.23,84,100,1.94,PT,1707519152
299,carlsbad,33.1581,-117.3506,14.91,76,100,3.13,US,1707518873
300,olinda,-8.0089,-34.8553,28.85,74,40,4.63,BR,1707519075
301,port augusta,-32.5,137.7667,26.85,26,0,4.14,AU,1707519152
302,mata-utu,-13.2816,-176.1745,28.24,84,100,12.02,WF,1707519152
303,chibougamau,49.9168,-74.3659,1.79,93,100,3.6,CA,1707519153
304,port saint john's,-31.6229,29.5448,20.73,96,100,3.39,ZA,1707519153
305,maun,-19.9833,23.4167,25.98,61,0,1.54,BW,1707519153
306,laguna,38.421,-121.4238,13.75,61,0,4.12,US,1707519153
307,salta,-24.7859,-65.4117,20.33,91,40,3.6,AR,1707519153
308,cockburn town,21.4612,-71.1419,22.98,60,40,4.63,TC,1707519153
309,sinop,41.7711,34.8709,8.06,69,3,2.42,TR,1707519154
310,nouadhibou,20.931,-17.0347,19.76,69,29,7.35,MR,1707519154
311,i-n-salah,27.1935,2.4607,19.18,12,100,4.22,DZ,1707519154
312,daru,-9.0763,143.2092,27.19,80,59,2.22,PG,1707519154
313,plouzane,48.3833,-4.6167,9.03,90,100,3.09,FR,1707519154
314,orange walk,17.8333,-88.8333,25.31,64,74,3.2,BZ,1707519154
315,tsiombe,-25.3,45.4833,23.84,86,1,2.44,MG,1707519154
316,craigavon,54.4471,-6.387,5.98,96,100,4.19,GB,1707519155
317,ilulissat,69.2167,-51.1,-13.99,47,75,4.12,GL,1707519155
318,rio grande,-32.035,-52.0986,27.06,91,16,5.88,BR,1707519155
319,labrador city,52.9463,-66.9114,-0.05,99,100,2.06,CA,1707519010
320,port moresby,-9.4431,147.1797,24.68,88,20,2.57,PG,1707518871
321,jayapura,-2.5333,140.7,25.66,83,100,1.1,ID,1707519155
322,black point,-34.6187,137.8972,20.19,59,0,6.05,AU,1707519156
323,illizi,26.4833,8.4667,14.89,13,51,2.46,DZ,1707519156
324,mount pearl,47.5166,-52.7813,-1.75,95,100,5.66,CA,1707519156
325,uyuni,-20.4597,-66.825,16.67,16,1,4.83,BO,1707519156
326,ban nam yuen,9.8769,98.8659,25.56,97,48,1.22,TH,1707519156
327,seven pagodas,12.6264,80.1722,27.03,78,76,3.07,IN,1707519156
328,soc trang,9.6033,105.98,25.23,75,7,6.59,VN,1707519157
329,whangarei,-35.7317,174.3239,25.78,59,100,1.35,NZ,1707519123
330,banda aceh,5.5577,95.3222,25.82,86,61,5.29,ID,1707519157
331,rosalie,15.3667,-61.2667,23.39,83,41,3.84,DM,1707519157
332,brad,46.1333,22.7833,8.53,79,100,0.99,RO,1707519157
333,juegang,32.3174,121.1855,2.56,87,6,3.85,CN,1707519158
334,elmina,5.0898,-1.348,25.51,90,19,0.33,GH,1707519158
335,cassia,-20.5831,-46.9219,23.03,71,68,1.56,BR,1707519158
336,redwood falls,44.5394,-95.1169,0.01,80,100,6.17,US,1707519087
337,shalqar,47.8333,59.6,-3.78,64,100,2.88,KZ,1707519158
338,east london,-33.0153,27.9116,20.46,65,71,6.39,ZA,1707519158
339,talcahuano,-36.7167,-73.1167,16.82,77,0,7.72,CL,1707519159
340,mejit,10.2753,170.8646,26.25,81,91,10.87,MH,1707519159
341,turpan,42.9333,89.1667,0.96,56,17,0.63,CN,1707519159
342,betare oya,5.6,14.0833,23.68,30,25,2.27,CM,1707519159
343,jamestown,42.097,-79.2353,15.77,56,75,5.66,US,1707519004
344,kiiminki,65.1314,25.7974,-19.57,75,100,0.38,FI,1707519159
345,saudarkrokur,65.7461,-19.6394,-10.09,77,100,3.25,IS,1707519160
346,shenandoah,30.4013,-91.0009,23.94,70,99,0.89,US,1707519160
347,iwon-up,40.3231,128.6553,-4.2,80,65,2.25,KP,1707519160
348,seminole,28.7086,-81.2081,24.15,59,100,1.54,US,1707519160
349,midvagur,62.0511,-7.1939,1.46,80,75,1.03,FO,1707519160
350,plastun,44.7561,136.2939,-8.27,72,100,2.28,RU,1707519160
351,papao,-17.75,-149.55,29.82,81,98,2.66,PF,1707519161
352,rouissat,31.9243,5.3502,20.04,13,40,6.17,DZ,1707519161
353,lerwick,60.1545,-1.1494,2.0,57,100,10.94,GB,1707519161
354,thief river falls,48.1191,-96.1812,-5.47,86,100,7.72,US,1707519161
355,anar darah,32.7587,61.654,10.52,25,0,1.54,AF,1707519161
356,bol,13.4586,14.7147,20.78,24,23,4.26,TD,1707519161
357,amasra,41.7463,32.3863,11.34,72,7,3.18,TR,1707519162
358,kulob,37.9145,69.783,7.42,45,1,5.0,TJ,1707519162
359,atafu village,-8.5421,-172.5159,29.39,73,82,6.11,TK,1707519162
360,devonport,-41.1667,146.35,14.73,59,36,0.89,AU,1707519032
361,santyoku,37.4406,129.1708,-1.96,82,11,3.21,KR,1707519162
362,lucapa,-8.4192,20.7447,21.44,88,100,0.82,AO,1707519162
363,al wajh,26.2455,36.4525,20.97,56,0,2.06,SA,1707519163
364,songkhla,6.8333,100.6667,23.03,91,59,2.43,TH,1707519163
365,quang ngai,15.1167,108.8,19.28,88,100,3.45,VN,1707519163
366,kotlas,61.2611,46.6556,-19.97,100,53,1.34,RU,1707519163
367,bowie,33.4501,-94.4335,24.04,77,99,5.66,US,1707519063
368,bagnols-sur-ceze,44.1599,4.6178,13.12,87,100,5.14,FR,1707519163
369,acarau,-2.8856,-40.12,27.98,80,40,8.45,BR,1707519163
370,santa cruz del norte,23.1539,-81.9236,23.01,68,0,7.99,CU,1707519163
371,vezirkopru,41.1436,35.4547,4.27,69,3,1.71,TR,1707519164
372,chyorny yar,48.0624,46.1091,-2.14,97,100,4.93,RU,1707519164
373,birobidzhan,48.8,132.95,-25.66,97,6,1.58,RU,1707519164
374,korla,41.7597,86.1469,1.11,49,17,2.93,CN,1707519164
375,mulanje,-16.0316,35.5,20.33,79,95,1.03,MW,1707519164
376,thunder bay,48.4001,-89.3168,1.99,75,100,6.17,CA,1707519165
377,ambon,-3.6954,128.1814,27.08,83,20,1.54,ID,1707519165
378,nasir,15.5894,32.5634,23.13,18,36,5.25,SD,1707519165
379,barmer,25.75,71.3833,15.58,20,0,2.62,IN,1707519165
380,zhangye,38.9342,100.4517,-3.01,49,0,3.48,CN,1707519165
381,clarkston heights-vineland,46.3874,-117.083,6.47,73,100,3.09,US,1707519166
382,kargasok,59.0556,80.8572,-4.46,87,100,5.36,RU,1707519166
383,la passe,45.5549,-0.8967,11.13,94,100,4.79,FR,1707519166
384,fale old settlement,-9.3852,-171.2468,28.66,78,100,6.4,TK,1707519166
385,yambio,4.5721,28.3955,27.39,37,77,1.26,SS,1707519166
386,nuuk,64.1835,-51.7216,-10.66,85,100,4.63,GL,1707519166
387,la quiaca,-22.1024,-65.593,17.82,38,48,4.4,AR,1707519167
388,rio preto da eva,-2.6994,-59.6997,27.59,78,72,1.27,BR,1707519167
389,namibe,-15.1961,12.1522,23.78,85,100,3.87,AO,1707519167
390,ordino,42.5976,1.5257,5.83,88,100,0.45,AD,1707519167
391,susuman,62.7833,148.1667,-38.34,100,100,0.89,RU,1707519167
392,peniche,39.3558,-9.3811,14.5,84,30,10.77,PT,1707519167
393,magistral'nyy,56.1725,107.4458,-13.68,97,100,1.65,RU,1707519167
394,ierapetra,35.01,25.7353,13.97,77,0,0.89,GR,1707519168
395,alice springs,-23.7,133.8833,30.68,31,39,2.57,AU,1707519168
396,barentu,15.1139,37.5928,22.72,27,1,1.6,ER,1707519168
397,fyodorovka,53.6314,62.7078,-16.79,85,46,6.52,KZ,1707519168
398,siguiri,11.6667,-9.5,26.91,13,17,1.36,GN,1707519168
399,wuyishan,28.0047,117.8114,2.21,87,52,1.0,CN,1707519168
400,puerto baquerizo moreno,-0.9,-89.6,27.55,83,75,4.12,EC,1707519168
401,grand falls-windsor,48.9332,-55.6649,-10.85,98,57,0.97,CA,1707519169
402,sorong,-0.8833,131.25,27.9,79,80,4.46,ID,1707519169
403,hailar,49.2,119.7,-26.17,100,99,2.25,CN,1707519169
404,shingu,33.7333,135.9833,5.81,61,82,2.44,JP,1707519169
405,lichuan,30.3,108.85,-2.34,94,17,0.6,CN,1707519077
406,raton,36.9034,-104.4391,7.34,23,0,5.14,US,1707519169
407,ataq,14.5377,46.8319,18.0,72,49,4.19,YE,1707519169
408,mtwara,-10.2667,40.1833,28.63,89,75,3.09,TZ,1707519170
409,berdigestyakh,62.0989,126.6992,-28.82,99,100,1.33,RU,1707519170
410,ribeira brava,32.65,-17.0667,19.84,76,99,6.53,PT,1707519170
411,banyo,6.75,11.8167,22.28,26,6,2.39,CM,1707519170
412,north battleford,52.7834,-108.2847,-6.95,68,100,6.69,CA,1707519171
413,bambari,5.768,20.6757,27.39,22,0,1.22,CF,1707519171
414,gadzhiyevo,69.2551,33.3362,-10.46,86,100,3.17,RU,1707519171
415,alofi,-19.0595,-169.9187,29.94,74,75,5.66,NU,1707519171
416,douala,4.0483,9.7043,27.95,94,75,0.0,CM,1707519021
417,namdrik,5.5994,168.1028,27.68,78,100,8.51,MH,1707519171
418,gulf shores,30.246,-87.7008,19.21,83,75,2.57,US,1707519171
419,estevan,49.1334,-102.9842,-3.81,86,100,5.66,CA,1707519171
420,madimba,-10.4,40.3333,28.62,89,75,3.09,TZ,1707519172
421,pisco,-13.7,-76.2167,27.03,78,0,8.23,PE,1707519172
422,atotonilco el grande,20.2833,-98.6667,23.07,34,0,3.41,MX,1707519172
423,lobito,-12.3481,13.5456,26.91,80,78,1.91,AO,1707519172
424,lesnoy,57.6198,63.0784,-15.4,92,96,5.11,RU,1707519172
425,deqen,29.9618,90.7188,-10.45,33,0,1.09,CN,1707519172
426,zhanaozen,43.3,52.8,6.98,74,7,2.91,KZ,1707519173
427,luocheng,29.3848,104.0286,7.4,77,93,1.29,CN,1707519173
428,leava,-14.3,-178.1667,26.91,90,100,11.23,WF,1707519173
429,hilo,19.7297,-155.09,24.23,81,100,4.63,US,1707518923
430,levuka,50.1834,-105.4011,-3.1,91,100,4.5,CA,1707519173
431,bazou,5.0569,10.4698,18.68,89,19,1.6,CM,1707519173
432,geraldton,-28.7667,114.6,26.23,19,0,4.12,AU,1707519173
433,dubinino,55.6192,89.0911,1.3,69,100,9.78,RU,1707519174
434,wailea,19.8858,-155.123,26.54,80,100,4.63,US,1707519174
435,sanctuary point,-35.1114,150.629,21.1,77,80,4.78,AU,1707519174
436,musoma,-1.5,33.8,21.36,80,5,2.78,TZ,1707519174
437,tanjung pandan,-2.75,107.65,25.56,89,83,3.64,ID,1707519174
438,danilovgrad,42.5538,19.1461,14.16,96,100,4.39,ME,1707519174
439,tindouf,27.6711,-8.1474,20.25,10,94,4.12,DZ,1707519175
440,nobres,-14.7203,-56.3275,27.93,72,97,2.27,BR,1707519175
441,jagalur,14.5333,76.35,21.7,56,9,3.86,IN,1707519175
442,kuala tungkal,-0.8167,103.4667,24.7,92,98,3.78,ID,1707519175
443,saint-vallier,46.6411,4.3711,8.87,92,99,1.47,FR,1707519175
444,prineville,44.2999,-120.8345,7.05,66,100,2.06,US,1707519175
445,newman,37.3138,-121.0208,13.49,69,78,4.02,US,1707519175
446,kudahuvadhoo,2.6708,72.8944,27.54,72,98,7.26,MV,1707519175
447,nicoya,10.1483,-85.452,29.83,48,0,5.49,CR,1707519176
448,bay roberts,47.5999,-53.2648,-1.08,91,81,2.24,CA,1707519176
449,igarka,67.4667,86.5833,-16.07,85,99,5.6,RU,1707519176
450,camana,-16.6228,-72.7111,25.14,82,7,3.39,PE,1707519176
451,miracema do tocantins,-9.5618,-48.3967,25.4,90,98,0.86,BR,1707519176
452,uvira,-3.4067,29.1458,23.55,84,85,1.26,CD,1707519176
453,boca suno,-0.7167,-77.1333,25.77,80,76,0.68,EC,1707519177
454,durango,24.8333,-104.8333,20.92,16,80,8.93,MX,1707519024
455,sao jose da coroa grande,-8.8978,-35.1478,26.81,77,51,3.63,BR,1707519140
456,nortelandia,-14.4547,-56.8028,25.64,84,96,2.69,BR,1707519177
457,morada nova,-5.1067,-38.3725,27.17,76,97,4.13,BR,1707519177
458,kinkala,-4.3614,14.7644,22.88,93,98,1.26,CG,1707519177
459,fortuna,40.5982,-124.1573,12.18,72,100,5.66,US,1707519177
460,ust-tsilma,65.441,52.1498,-19.1,100,85,1.79,RU,1707519178
461,panacan,9.2463,118.4082,25.12,76,100,3.15,PH,1707519178
462,obidos,-1.9175,-55.5181,28.81,63,85,1.74,BR,1707519178
463,ponte vedra beach,30.2397,-81.3856,23.02,80,0,3.6,US,1707519178
464,tanggu,39.0211,117.6469,-5.02,45,0,3.62,CN,1707519178
465,sao vicente,-23.9631,-46.3919,29.04,54,92,3.58,BR,1707519178
466,itoman,26.1247,127.6694,16.01,59,75,8.23,JP,1707519179
467,alo,7.4178,6.7371,28.93,30,4,0.49,NG,1707519179
468,siwa oasis,29.2041,25.5195,14.23,37,0,2.14,EG,1707519179
469,urcos,-13.6861,-71.6228,16.94,82,100,1.58,PE,1707519179
470,ghatanji,20.1333,78.3167,20.18,32,1,2.2,IN,1707519179
471,mount gambier,-37.8333,140.7667,17.44,52,24,3.45,AU,1707519179
472,touros,-5.1989,-35.4608,27.29,80,62,5.51,BR,1707519179
473,popondetta,-8.7537,148.2534,27.64,79,100,0.91,PG,1707519180
474,port-vila,-17.7338,168.3219,25.78,100,100,2.06,VU,1707519180
475,pemba,-12.974,40.5178,27.39,94,20,3.6,MZ,1707519180
476,rawson,-43.3002,-65.1023,23.2,41,42,7.54,AR,1707519180
477,brookings,44.3114,-96.7984,-0.5,88,100,7.72,US,1707519180
478,dickinson,29.4608,-95.0513,24.49,80,75,8.75,US,1707518952
479,rabigh,22.7986,39.0349,22.83,70,0,0.97,SA,1707519181
480,sao pedro do piaui,-5.9294,-42.7186,25.65,76,95,0.94,BR,1707519140
481,kavaratti,10.5669,72.642,27.7,75,53,2.45,IN,1707519181
482,conceicao da barra,-18.5933,-39.7322,23.23,90,24,2.49,BR,1707519181
483,amga,60.8953,131.9608,-40.19,100,100,0.52,RU,1707519181
484,hinatuan,8.3722,126.3342,24.49,90,54,2.63,PH,1707519181
485,rongelap,11.1635,166.8941,26.11,77,100,9.82,MH,1707519182
486,havre,49.5833,0.3333,10.87,87,100,4.63,FR,1707519182
487,bandar abbas,27.1865,56.2808,16.99,77,0,2.06,IR,1707519182
488,kruisfontein,-34.0033,24.7314,18.27,83,82,8.36,ZA,1707519182
489,inhambane,-23.865,35.3833,24.82,81,2,2.97,MZ,1707519182
490,kalachinsk,55.0529,74.5751,-5.96,88,100,6.63,RU,1707519183
491,al jawf,29.5,38.75,12.61,41,27,4.87,SA,1707519183
492,surovikino,48.6078,42.8486,-2.26,97,100,3.73,RU,1707519183
493,ostersund,63.1792,14.6357,-19.75,84,91,0.51,SE,1707519183
494,sao tome,0.3365,6.7273,27.04,81,28,0.27,ST,1707519183
495,mahanje,-9.9333,35.3333,19.21,96,99,1.04,TZ,1707519183
496,maricopa,33.0581,-112.0476,15.14,50,0,2.57,US,1707518665
497,tofol,5.3248,163.0078,27.88,89,100,5.14,FM,1707519184
498,buala,-8.145,159.5921,27.48,83,100,4.76,SB,1707519184
499,beacon square,28.2086,-82.7554,23.43,69,20,1.34,US,1707519184
500,kulhudhuffushi,6.6221,73.07,27.4,72,58,4.51,MV,1707519184
501,aydintepe,40.3894,40.1506,-1.68,96,81,1.59,TR,1707519184
502,shahpur,16.7,76.8333,23.44,68,1,4.26,IN,1707519184
503,antsiranana,-12.2787,49.2917,24.95,89,100,1.34,MG,1707519185
504,paita,-5.0892,-81.1144,26.62,80,63,6.05,PE,1707519185
505,la mira,18.035,-102.3266,30.18,45,1,3.26,MX,1707519185
506,karratha,-20.7377,116.8463,28.54,78,3,5.42,AU,1707519052
507,hancheng,32.5186,112.3522,3.34,92,0,2.01,CN,1707519185
508,kristiansund,63.1115,7.732,-3.64,58,1,3.6,NO,1707519186
509,ulanhot,46.0833,122.0833,-16.91,80,8,2.28,CN,1707519186
510,mahibadhoo,3.7833,72.9667,27.79,72,80,7.6,MV,1707519186
511,la foa,-21.7108,165.8276,28.08,64,61,2.24,NC,1707518899
512,orcopampa,-15.2661,-72.3417,11.15,73,93,4.38,PE,1707519186
513,plettenberg bay,-34.0527,23.3716,17.37,85,69,4.55,ZA,1707519186
514,ponta delgada,37.7333,-25.6667,15.4,82,20,1.03,PT,1707519186
515,urangan,-25.3,152.9,28.44,67,5,4.92,AU,1707519187
516,nova olimpia,-14.7972,-57.2881,29.34,63,62,1.46,BR,1707519187
517,egilsstadir,65.2653,-14.3948,-10.05,85,100,0.51,IS,1707519187
518,santa elena de uairen,4.6167,-61.1333,26.3,48,93,2.1,VE,1707519187
519,akrehamn,59.2667,5.1833,-0.88,50,100,6.17,NO,1707519187
520,whakatane,-37.9585,176.9854,23.27,83,94,2.24,NZ,1707519187
521,paradip garh,20.3167,86.6167,18.2,49,1,3.45,IN,1707519188
522,temozon,20.8,-88.2167,27.62,48,46,3.61,MX,1707519188
523,meadow lakes,61.6247,-149.6011,2.96,57,0,6.17,US,1707519188
524,sucua,-2.4667,-78.1667,27.41,69,40,4.63,EC,1707519188
525,ljungby,56.8332,13.9408,-1.68,89,100,7.6,SE,1707519188
526,ballina,-28.8667,153.5667,23.77,82,100,6.48,AU,1707518938
527,maragogi,-9.0122,-35.2225,27.46,78,47,5.97,BR,1707519189
528,north bondi,-33.8824,151.2769,22.16,86,75,7.2,AU,1707519189
529,labytnangi,66.6572,66.4183,-21.73,87,65,6.3,RU,1707519189
530,union city,37.5958,-122.0192,15.26,62,20,4.12,US,1707519189
531,ulladulla,-35.35,150.4667,16.38,90,78,1.34,AU,1707519190
532,garachico,28.7781,-17.7646,20.06,78,40,5.14,ES,1707519190
533,arar,30.9753,41.0381,14.01,54,0,2.06,SA,1707519190
534,ambodifotatra,-16.9833,49.85,24.81,95,100,2.4,MG,1707519190
535,fort st. john,56.2499,-120.8529,-7.06,73,75,1.03,CA,1707519190
536,sungailiat,-1.85,106.1333,25.88,88,98,4.34,ID,1707519191
537,sittwe,20.15,92.9,15.88,50,0,4.31,MM,1707519191
538,matoury,4.8483,-52.3317,27.98,78,0,1.54,GF,1707519191
539,comilla,23.4578,91.2044,12.23,54,3,2.26,BD,1707519191
540,torghay,49.6339,63.4981,-9.11,84,77,5.0,KZ,1707519191
541,pandan,14.0453,124.1694,26.23,76,56,8.53,PH,1707519191
542,mamburao,13.25,120.6667,24.31,77,42,4.43,PH,1707519192
543,broken hill,-31.95,141.4333,25.44,28,0,7.1,AU,1707519192
544,kievka,50.2619,71.5514,-0.77,97,100,6.11,KZ,1707519192
545,lamego,41.0974,-7.8099,8.77,92,100,5.58,PT,1707519192
546,tarinkot,32.6268,65.8733,5.18,37,0,2.26,AF,1707519192
547,iyo,33.7514,132.7014,8.92,66,75,6.17,JP,1707519193
548,saint-jean-de-monts,46.7833,-2.0667,10.82,94,98,4.06,FR,1707519193
549,dwarka,22.2394,68.9678,22.37,46,0,6.49,IN,1707519193
550,ocara,-4.4908,-38.5967,24.11,96,81,1.4,BR,1707519081
551,sinabang,2.4803,96.3801,26.67,83,100,1.89,ID,1707519194
552,san jose de jachal,-30.2406,-68.7469,27.24,47,8,4.15,AR,1707519194
553,nuestra senora del rosario de caa cati,-27.7507,-57.6207,30.21,52,100,3.48,AR,1707519005
554,quelimane,-17.8786,36.8883,25.97,83,20,0.0,MZ,1707519194
555,kununurra,-15.7667,128.7333,27.99,78,71,0.0,AU,1707519195
556,tynda,55.1667,124.7167,-34.55,100,69,0.8,RU,1707519195
557,canutama,-6.5339,-64.3831,26.3,89,100,0.52,BR,1707519195
558,vallenar,-28.5708,-70.7581,28.35,39,0,2.39,CL,1707519195
559,krasnoarmeysk,51.0239,45.6969,-13.06,88,40,3.03,RU,1707519195
560,kogalym,62.2654,74.4791,-10.26,95,100,4.29,RU,1707519195
561,hegang,47.4,130.3667,-18.43,98,100,0.9,CN,1707519196
562,varkaus,62.3153,27.873,-14.27,86,100,2.31,FI,1707519196
563,cherdyn',60.403,56.4787,-20.18,100,96,1.42,RU,1707519196
564,cururupu,-1.8283,-44.8683,24.93,91,86,1.8,BR,1707519196
565,lagodekhi,41.8268,46.2767,8.5,90,46,2.81,GE,1707519197
566,gisborne,-38.6533,178.0042,23.72,59,1,3.33,NZ,1707519197
567,san ignacio de velasco,-16.3667,-60.95,31.87,40,82,2.06,BO,1707519168
568,vorkuta,67.5,64.0,-22.48,90,64,5.91,RU,1707519197
569,mundemba,4.9479,8.8724,25.33,88,55,0.67,CM,1707519197
570,chagoda,59.164,35.3285,-22.41,100,80,1.2,RU,1707519197
571,shiqiao,22.9374,113.3606,11.62,64,100,3.77,CN,1707519197
572,chipata,-13.6333,32.65,18.65,73,68,2.11,ZM,1707519198
573,gustavia,17.8962,-62.8498,24.77,75,49,6.71,BL,1707519198
574,myeik,12.4333,98.6,23.1,90,58,1.86,MM,1707519198
575,eyl,7.9803,49.8164,25.04,70,26,7.12,SO,1707519198
576,kokopo,-4.352,152.2633,26.35,78,100,1.84,PG,1707519198
577,kendari,-3.945,122.4989,24.93,93,100,0.71,ID,1707519199
578,konotop,51.2403,33.2026,-1.86,78,100,3.95,UA,1707519199
579,sitrah,26.1547,50.6206,17.26,75,0,0.0,BH,1707519199
580,ulety,51.3572,112.4849,-16.21,93,83,1.8,RU,1707519199
581,yuzhno-kurilsk,44.0306,145.8556,-7.57,82,100,1.28,RU,1707519199
582,santa ana de yacuma,-13.75,-65.4333,28.97,84,40,1.03,BO,1707519199
583,itaituba,-4.2761,-55.9836,25.43,96,100,0.46,BR,1707519200
584,okakarara,-20.5833,17.4333,26.53,44,97,1.15,NA,1707519200
585,ha giang,22.8333,104.9833,14.11,68,100,0.57,VN,1707519200
586,codrington,-38.2667,141.9667,17.34,66,28,5.88,AU,1707519200
587,bani walid,31.7566,13.9942,15.3,25,59,5.06,LY,1707519200
588,port shepstone,-30.7414,30.455,22.99,85,73,10.88,ZA,1707519200
589,whitefish,48.4111,-114.3376,0.86,77,75,3.6,US,1707518958
590,al ghayzah,16.2079,52.176,22.26,69,0,1.52,YE,1707519201
591,canico,32.6333,-16.85,19.84,71,20,5.66,PT,1707519201
592,usogorsk,63.4106,48.6872,-21.3,100,93,1.44,RU,1707519201
